header: 
  seq: 0
  stamp: 
    secs: 1673001538
    nsecs: 948282003
  frame_id: ''
data: [23.070098265453037, -17.320666309721847, -0.0514128761155694, 22.96289899720038, -14.342570130873407, -1.1366224891244576, 0.5064769657157986, -0.43301714901346755, -0.6200176134313516, -0.41419245634663293, 3.1276880485016694e-12, -1.2195987513082466e-12, 1.6770649776179522e-13, -0.6351241090899341, -0.23134257471829175, -0.011372985797588433, 1.0, 1.0, 0.0, 0.0, 0.0, 0.0, 0.0, 0.0, 1.0, 0.0, 0.0, 0.0, 0.0, 0.0, 0.0, 0.0, 0.0, 0.0]
---
header: 
  seq: 1
  stamp: 
    secs: 1673001538
    nsecs: 988281965
  frame_id: ''
data: [22.29024578573032, -17.12138033332605, -0.2900009984473512, 12.939189345094395, -10.262980184604407, -1.46283310995931, 0.9798549213820752, -0.09134703593686333, -0.17694351369707842, 0.015200165440167206, -3.910824303694959e-08, -5.327133936471424e-08, -2.4576236511462396e-08, -0.2935366571195822, -0.7459948740966439, 0.02785321114529389, 0.214400673330282, 0.9801233601635941, 0.018740492715494383, -0.017516560352291485, -0.1967235697821454, 0.0367500428336225, 0.00469279577947252, -0.01840876656342694, 0.9457471341286656, 0.18478611757813088, 0.24191867743241055, 0.11354207390729755, 0.0, 0.0, 0.0, 0.0, 0.0, 0.0]
---
header: 
  seq: 2
  stamp: 
    secs: 1673001539
    nsecs: 108282089
  frame_id: ''
data: [19.716654957518696, -21.728958056255987, 1.0607599350247294, -0.30383262113056436, -21.110683050503933, 3.6016049638804732, 0.9771237214516646, -0.10416087411755315, -0.08585101219954708, 0.16434521284123416, -4.766809950259002e-08, -7.22682590228397e-10, 2.0323601820967873e-08, -1.1475405758714703, -0.9098273783601942, 0.023745050805812868, 0.32033220770376336, 0.9940264754305802, 0.010147386304889774, 0.007240928395831585, -0.10842493094396617, 3.4999823443069538, 1.5783981026793084, 0.003303505469816382, 0.9795327615166007, 0.12228004532651034, 0.15786213771064994, 0.025351629297397503, 0.0, 0.0, 0.0, 0.0, 0.0, 0.0]
---
header: 
  seq: 3
  stamp: 
    secs: 1673001539
    nsecs: 198282003
  frame_id: ''
data: [20.47938101484003, -15.384884903784894, 0.026172726884511017, 1.3947972472859491, -1.1286410546062635, 0.20314692917069793, 0.9634987758128669, -0.0030007419448633867, -0.055181617773132276, 0.2619467381259541, -3.4816993974710255e-09, -1.683235172771624e-08, 1.2660813075134995e-08, -1.064389800912528, -0.11436493444527926, 0.030751537883571774, 0.3765194933690086, 0.9820755765795878, 0.05802766550657251, -0.0652238788672214, -0.16705148172716605, 3.5708310007722646, 1.5564962918028793, 0.07536239630417063, 0.9840298823165811, 0.06781884939681772, 0.1645242347673068, 0.004191723838662783, 0.0, 0.0, 0.0, 0.0, 0.0, 0.0]
---
header: 
  seq: 4
  stamp: 
    secs: 1673001539
    nsecs: 238281965
  frame_id: ''
data: [19.849865431007988, -16.258184146263616, 0.16844451744860656, -1.0384285321347502, -4.644156939014288, 0.5456503471932614, 0.9340258467489954, 0.22140471403631112, -0.16119185373504955, 0.22933132471771017, 5.2152588732880936e-09, 1.0929888452588195e-07, 4.541091060652837e-08, -1.0256407334558302, 0.1844147554111739, 0.03441813849434174, 0.42357843971708176, 0.9849166663191504, -0.05784245636716714, 0.04745005718142344, -0.15601891783262456, 5.449074627304285, 1.9422864320904656, 0.2584192775700831, 0.9705774481878976, -0.07539525370063357, 0.22813091471052813, -0.01585113692527814, 0.0, 0.0, 0.0, 0.0, 0.0, 0.0]
---
header: 
  seq: 5
  stamp: 
    secs: 1673001539
    nsecs: 358282089
  frame_id: ''
data: [18.72397454198584, -17.9791250615113, -0.10822809126467893, -4.081111938006099, -8.873957656023311, -0.8061789808176509, 0.8181555111050609, 0.35032419779435486, -0.34155177909898, 0.3020544624442422, 1.042445816852069e-07, 6.019382050598707e-08, 1.347518652569942e-07, -0.6751840250102973, 0.5425665805635994, 0.04813305229829064, 0.4549629680188156, 0.9871902321045243, 0.02912991299736445, -0.03097130310590606, -0.1537779964432608, 6.299916339815478, 1.8632605674376457, -0.02240059201110567, 0.8898580109958648, -0.20191367796698184, 0.39197393807352565, -0.11721782623586417, 0.0, 0.0, 0.0, 0.0, 0.0, 0.0]
---
header: 
  seq: 6
  stamp: 
    secs: 1673001539
    nsecs: 398282051
  frame_id: ''
data: [20.62819885118902, -15.80503190344609, -0.0446276295960258, 0.17561925761325345, -3.1341279309274266, -0.2566905189746184, 0.9307957151989564, 0.16385858995639288, -0.19261295819398166, 0.26395065334363077, 5.9315679338486965e-08, 1.0429707299889518e-07, 8.879861074835099e-08, -0.8669335372453393, 0.26040103188723895, 0.039263575548007336, 0.45849053184463334, 0.9869552117463357, 0.016205198743405806, -0.019823785081945662, -0.15894596278439233, 6.751331200085101, 2.0616294096461245, 0.05044002751208307, 0.9622430404066937, -0.06290122839136064, 0.2632892255314153, -0.028470166399365157, 0.0, 0.0, 0.0, 0.0, 0.0, 0.0]
---
header: 
  seq: 7
  stamp: 
    secs: 1673001539
    nsecs: 448282003
  frame_id: ''
data: [21.05114731956146, -15.487386696699957, -0.01893128680260843, 1.0892967369229478, -2.0348547920279767, -0.10813901755625278, 0.9515412847708836, 0.11037376639320368, -0.13225839303230635, 0.2547440530047107, 5.643383721075513e-08, 9.875277886984614e-08, 7.753916366345841e-08, -0.9625553301012171, 0.15601179219415112, 0.040022593077640306, 0.4588181700641109, 0.9869770565127325, 0.014185771508381236, -0.018416095000478507, -0.15917255180811818, 6.824401010617691, 2.095208996985349, 0.0669799577496466, 0.977120624007018, -0.027930973618455392, 0.2107699166092285, -0.00558472070920366, 0.0, 0.0, 0.0, 0.0, 0.0, 0.0]
---
header: 
  seq: 8
  stamp: 
    secs: 1673001539
    nsecs: 488281965
  frame_id: ''
data: [20.757306409039995, -16.133020423918047, -0.10118680268202633, -0.42677512719332084, -4.81659349521244, -0.6583765792802925, 0.875693229814216, 0.28496795456801033, -0.291238084082377, 0.2591042464084628, 3.994665293228218e-08, 2.430783109503598e-07, 1.0258114368215871e-07, -0.6676696051501622, 0.5306937327342016, 0.028036192582421557, 0.4786294072722598, 0.9865749845946818, -0.01622345009103064, 0.012621601241948993, -0.16201016826494735, 7.3720864855765855, 2.0505532601304877, 0.13557710564252617, 0.9280907246805918, -0.14385025926289804, 0.3407673221127444, -0.04280586235505744, 0.0, 0.0, 0.0, 0.0, 0.0, 0.0]
---
header: 
  seq: 9
  stamp: 
    secs: 1673001539
    nsecs: 538281918
  frame_id: ''
data: [21.085594836791188, -15.708455831660315, -0.03924426154567092, 0.4306220596468092, -3.04221591440313, -0.2852350133376448, 0.9289354793129974, 0.17281494937326913, -0.20092025260835047, 0.25854384664587016, 6.674383711839736e-08, 2.2759522511932396e-07, 9.70116973529502e-08, -0.8718611741355846, 0.2933797348549112, 0.029946923620998905, 0.4804581740304307, 0.9869165688002143, -0.010615878715011755, 0.005560803001161282, -0.16078577927386006, 7.474611809474621, 2.090336519564615, 0.13825348100808205, 0.964663277823016, -0.06898484582356432, 0.25383082797789625, -0.015354550938059836, 0.0, 0.0, 0.0, 0.0, 0.0, 0.0]
---
header: 
  seq: 10
  stamp: 
    secs: 1673001539
    nsecs: 608282089
  frame_id: ''
data: [20.92350163061753, -16.41894832742037, -0.15215944232681228, -0.4486060151207204, -5.334207009665118, -0.8763738801462126, 0.8725001560373197, 0.28460257565079183, -0.28675715778772176, 0.2748002622001949, 3.392251447456142e-08, 3.163771649028552e-07, 1.2284062981585296e-07, -0.6646035247312677, 0.5785043425252727, 0.023741448899642893, 0.4900729761110483, 0.9865503101015419, -0.014360345608423978, 0.011000165847599313, -0.16245387795889488, 7.681749329186129, 2.068113048808925, 0.13287338479336444, 0.9278581915803413, -0.15841129035164478, 0.3351283543790162, -0.04091485668553915, 0.0, 0.0, 0.0, 0.0, 0.0, 0.0]
---
header: 
  seq: 11
  stamp: 
    secs: 1673001539
    nsecs: 648282051
  frame_id: ''
data: [21.566153880923956, -15.399471282837103, 0.011264696934174631, 1.456612525030738, -1.617070000191591, 0.014910301687912053, 0.9564156606540597, 0.08231736859420842, -0.09402994334322047, 0.26391533611795787, 1.5546224116940656e-07, 2.5258186938926517e-07, 1.234617290322942e-07, -1.0944334303415877, 0.09987308316469867, 0.04150251597918246, 0.49475820400137044, 0.9871191421280782, -0.0014955425523008588, -0.003946790888398094, -0.15993118969883477, 7.8775740336582105, 2.103785136080254, 0.11520590377467191, 0.9879317403017965, -0.022252242503785737, 0.15318358215169023, 0.005523075863395903, 0.0, 0.0, 0.0, 0.0, 0.0, 0.0]
---
header: 
  seq: 12
  stamp: 
    secs: 1673001539
    nsecs: 738281965
  frame_id: ''
data: [22.06922400254502, -14.917732751541852, 0.06368799046715065, 2.5243987880308367, 0.2185802028115774, 0.20524177924959447, 0.9653152376833483, -0.013600288494421341, 0.006257634596112118, 0.2606575647443805, 2.5378291238482826e-07, 1.410662069978705e-07, 1.2156053839112938e-07, -1.3094233257981607, -0.12986687208537523, 0.06517183529101063, 0.49620468316837296, 0.9872666806741011, 0.0036810222997503946, -0.009978037466478126, -0.15871795762889848, 7.943956431630587, 2.1160979051604256, 0.10356778293865831, 0.9971981760079592, 0.038036436620909074, 0.057587845770591284, 0.028855974686112326, 0.0, 0.0, 0.0, 0.0, 0.0, 0.0]
---
header: 
  seq: 13
  stamp: 
    secs: 1673001539
    nsecs: 778281927
  frame_id: ''
data: [22.144146413754555, -15.211956939670316, 0.050104839359501566, 2.4476314323636874, -0.9411590605519815, 0.14782475894223118, 0.9631393778945643, 0.05571690440907933, -0.020883196738959955, 0.26233958413838926, 1.5303925784579004e-07, 3.39651812465558e-07, 1.832621947120636e-07, -1.2363840186473594, 0.019721841541051083, 0.05934091112649474, 0.5011335109729917, 0.9872464167834659, 0.0015164330893789422, -0.0075350961311767585, -0.1590139468889022, 8.04879054626953, 2.1557544533571926, 0.11101374501525887, 0.9962636112610793, -0.020038196478440747, 0.08217835213425582, 0.017435767818561678, 0.0, 0.0, 0.0, 0.0, 0.0, 0.0]
---
header: 
  seq: 14
  stamp: 
    secs: 1673001539
    nsecs: 898282051
  frame_id: ''
data: [23.013962774275495, -14.600275644598028, 0.07674069974459777, 4.096608200412019, 1.0226985384302882, 0.13455490943471343, 0.960884972277813, -0.023156061086985428, 0.0930971390481589, 0.25980144261849347, 3.596917624171863e-07, 3.9250854121104124e-08, 1.8956967027631056e-07, -1.4838740954024747, -0.1768963070653563, 0.1035186011859777, 0.5031950699429234, 0.9872464165765492, 0.006797389461413401, -0.013338652134098475, -0.1584941286373674, 8.119770220885659, 2.149442250969762, 0.09111822217331916, 0.9985197006397464, 0.025438314424937512, -0.02430137512242256, 0.04148183651538207, 0.0, 0.0, 0.0, 0.0, 0.0, 0.0]
---
header: 
  seq: 15
  stamp: 
    secs: 1673001539
    nsecs: 898282051
  frame_id: ''
data: [23.147545445018302, -14.679925930122103, 0.07707059342057782, 4.585736110479385, 0.7176551733424392, 0.12630169550514578, 0.9620677350715465, 0.0003110334925325086, 0.11250504351085279, 0.248532073537989, 3.263845098851661e-07, 1.0372383521707465e-07, 2.0956309794529948e-07, -1.5193819752174356, -0.12402651085317447, 0.10848755006534665, 0.5041061248865213, 0.9874057910846056, 0.007574849382945508, -0.014237466474386283, -0.1573839888228814, 8.089827719508266, 2.2108564454773636, 0.09200340368499724, 0.9981289600675326, -0.003776899364406148, -0.04418636141306194, 0.04209369989406283, 0.0, 0.0, 0.0, 0.0, 0.0, 0.0]
---
header: 
  seq: 16
  stamp: 
    secs: 1673001540
    nsecs:  28281927
  frame_id: ''
data: [23.502239201001217, -14.310100390047841, 0.04448715149824396, 4.1972744487903455, 1.5645824297039477, -0.0011644769117789078, 0.956576874644461, -0.039425045994894915, 0.08756412347145888, 0.27520696380072046, 5.067753955238081e-07, 2.0692455729975235e-07, 2.75103861970078e-07, -1.5035868453947518, -0.23167162421307552, 0.12187837339098799, 0.5042060296027309, 0.9874879386181747, 0.007460554514477622, -0.013757135695905965, -0.15691606809823125, 8.089547942936248, 2.2334638156762616, 0.08423373438974875, 0.997886251594609, 0.03686876120909201, -0.028086558877615346, 0.04555072486560576, 0.0, 0.0, 0.0, 0.0, 0.0, 0.0]
---
header: 
  seq: 17
  stamp: 
    secs: 1673001540
    nsecs:  28281927
  frame_id: ''
data: [23.728988913910015, -14.291457669213452, 0.04013189330880519, 4.984597595197569, 1.6182418699797463, -0.054521397865290915, 0.9572224936821297, -0.03241511297491402, 0.12363997109328458, 0.2595910545219939, 5.003459466709498e-07, 2.888121716117086e-08, 3.1207900243890453e-07, -1.5812859750245967, -0.2020528795262759, 0.1292062417194345, 0.5039202032436269, 0.9877231326917995, 0.009103976439497306, -0.015575781952645515, -0.155169345474713, 7.988126818794662, 2.287047007194357, 0.08041729598218461, 0.9964407991222053, 0.018859235536351385, -0.06324397483760108, 0.052442947346869745, 0.0, 0.0, 0.0, 0.0, 0.0, 0.0]
---
header: 
  seq: 18
  stamp: 
    secs: 1673001540
    nsecs: 148282051
  frame_id: ''
data: [23.886606396242108, -13.980169879681421, 0.012527538346025992, 4.089428110091284, 2.1063646199970982, -0.10148078044102925, 0.9515399249724199, -0.055169237874363786, 0.07613209820625359, 0.2928003244509078, 7.141989402152751e-07, 4.5506552402323493e-07, 3.7947111840192336e-07, -1.5119183037238464, -0.2889003803323593, 0.13252690171311104, 0.5035659175354793, 0.987821389474547, 0.008226589002462125, -0.014365871070117742, -0.15470891208445847, 7.9687227909038105, 2.312551651823017, 0.07852481994398089, 0.9973010676970493, 0.050307509210535055, -0.025161725153302925, 0.04718710072326143, 0.0, 0.0, 0.0, 0.0, 0.0, 0.0]
---
header: 
  seq: 19
  stamp: 
    secs: 1673001540
    nsecs: 148282051
  frame_id: ''
data: [24.190373362221614, -13.884642079890991, -0.004091749952936677, 5.1316049447041365, 2.430451347645692, -0.21241916922347098, 0.9527888174735422, -0.0596478975896172, 0.12175840516810357, 0.2716808575910853, 7.514360981458099e-07, -1.4407478323189552e-07, 4.460861235465198e-07, -1.6206836651583771, -0.25722012165049846, 0.13598592355875977, 0.503819043810264, 0.9880554403908568, 0.01090988049159889, -0.017194684505603006, -0.15274738638170512, 7.8214486164792225, 2.330047568524781, 0.06809269860503805, 0.9950664416487609, 0.03993934105341885, -0.06894773537380602, 0.05910867556895106, 0.0, 0.0, 0.0, 0.0, 0.0, 0.0]
---
header: 
  seq: 20
  stamp: 
    secs: 1673001540
    nsecs: 278281927
  frame_id: ''
data: [24.42670377314566, -13.61170239746185, -0.02011094965468442, 4.294316159041525, 2.5701710783932543, -0.19638003227845963, 0.9455857625713897, -0.06117305657493405, 0.07880639645630622, 0.30970142823231367, 8.624380477035212e-07, 5.686166835417569e-07, 4.81212096942184e-07, -1.5364204682274298, -0.3135409286676711, 0.13662566433395096, 0.503459170603916, 0.9881571678891442, 0.00950067622187471, -0.015585312784226963, -0.15235565866107745, 7.799652121046958, 2.3450524320271247, 0.07224703440876118, 0.9968513256336549, 0.05332745498987085, -0.03148998334616695, 0.04951765418097469, 0.0, 0.0, 0.0, 0.0, 0.0, 0.0]
---
header: 
  seq: 21
  stamp: 
    secs: 1673001540
    nsecs: 278281927
  frame_id: ''
data: [24.800514094564743, -13.438624375812076, -0.05234528301871086, 5.535246070051266, 3.1499752937169876, -0.3643377099983625, 0.9470536408894682, -0.07631912999155904, 0.1281860473035668, 0.28431167572229893, 1.0012542282413237e-06, -6.064125301338992e-07, 5.492859580312601e-07, -1.6694360394125547, -0.26648304125971756, 0.1316457777542259, 0.5060509502798841, 0.9883226407614307, 0.013599551538062336, -0.019648729255920178, -0.15049032326014564, 7.636494586412621, 2.2897726892102765, 0.05217301666115801, 0.9934525650986351, 0.05028867654375601, -0.07834231287940033, 0.06622334877613832, 0.0, 0.0, 0.0, 0.0, 0.0, 0.0]
---
header: 
  seq: 22
  stamp: 
    secs: 1673001540
    nsecs: 318281889
  frame_id: ''
data: [24.820882872754748, -13.452002804731578, -0.04740718040834991, 5.118119022846114, 2.898805595623505, -0.3089259610845745, 0.9456978223454373, -0.06641202010888979, 0.10734221266970471, 0.29953751313537713, 8.658199980107796e-07, -1.6287282125208541e-07, 5.482897571584517e-07, -1.608536874657388, -0.2724322527933996, 0.13171456276207708, 0.5057131552871033, 0.9884155100552103, 0.012267865377714158, -0.018277993814358257, -0.15016721980344086, 7.620738470233192, 2.293824077527207, 0.05861200940915268, 0.9953350496310697, 0.04746688270993732, -0.05887870741356344, 0.05990268637569884, 0.0, 0.0, 0.0, 0.0, 0.0, 0.0]
---
header: 
  seq: 23
  stamp: 
    secs: 1673001540
    nsecs: 358282089
  frame_id: ''
data: [25.457023069527455, -13.070220701672039, -0.11057270178031199, 6.636384536318968, 3.8929759907004353, -0.5730395056238429, 0.9421898923568794, -0.09353687785431507, 0.16305934341325798, 0.27738188431733657, 1.2519095953108406e-06, -2.055009359726494e-06, 5.686011542932735e-07, -1.7789387624316335, -0.2045103561907399, 0.11876694004937104, 0.5118022728138688, 0.9884690726987797, 0.01862468704055039, -0.024114912598533753, -0.1483256024461765, 7.473466534385938, 2.141958719978115, 0.021194581999491237, 0.9891114142230086, 0.05250717800999969, -0.10987943554711235, 0.08263241588525677, 0.0, 0.0, 0.0, 0.0, 0.0, 0.0]
---
header: 
  seq: 24
  stamp: 
    secs: 1673001540
    nsecs: 488281965
  frame_id: ''
data: [27.087283516677562, -11.994122801002236, -0.31526684385698256, 9.07693557895011, 5.81777326204764, -1.175435155500335, 0.9263223178299446, -0.13537381469543242, 0.236868307802283, 0.2597966484461431, 2.1703976111809245e-06, -5.176407812542903e-06, 6.593204069182704e-07, -2.038832633334003, -0.1033829443291423, 0.09811692231136884, 0.522792401437094, 0.9880888014389786, 0.02887850168845445, -0.03314104693210979, -0.1474727894201387, 7.426144032606576, 1.8884789555035404, -0.045044295689489956, 0.9753233017015591, 0.0659970229661322, -0.17481804047020055, 0.11759040285557683, 0.0, 0.0, 0.0, 0.0, 0.0, 0.0]
---
header: 
  seq: 25
  stamp: 
    secs: 1673001540
    nsecs: 568281889
  frame_id: ''
data: [25.794447259094955, -12.686226013626413, -0.09180244484339632, 4.799484527387367, 3.4638449514814744, -0.3163384207747432, 0.9276633478575201, -0.06625188159776024, 0.08307050049303225, 0.35798141456557653, 1.2085156485320857e-06, 1.0873738186218171e-06, 5.554550090071424e-07, -1.5841315332068064, -0.3530905989250451, 0.12044969739321797, 0.5221197567905498, 0.98913412823748, 0.014760675473946092, -0.01911041987577863, -0.1450192768827819, 7.310605464445099, 1.8910397937233783, 0.02739851404915116, 0.9963452312523369, 0.051147209226075664, -0.041907411060789865, 0.05407321007017757, 0.0, 0.0, 0.0, 0.0, 0.0, 0.0]
---
header: 
  seq: 26
  stamp: 
    secs: 1673001540
    nsecs: 608282089
  frame_id: ''
data: [25.236470973626684, -12.893566661500605, -0.030413300023748563, 3.1065969677507175, 2.7111839656817645, -0.09276629704567722, 0.9173711344447723, -0.04664672522801116, 0.02715632462668965, 0.3943562079462986, 1.112634600607263e-06, 3.626441648216512e-06, 5.247383857092718e-07, -1.435889204147552, -0.46743331512606157, 0.14592705910208997, 0.5215853125516909, 0.9893669674061789, 0.01031861123749929, -0.014829919806905064, -0.1443142527477841, 7.272857171330994, 1.9017729033630966, 0.0497807110951117, 0.9982480463071333, 0.04941472670635626, 0.005018511022104025, 0.03215334159381863, 0.0, 0.0, 0.0, 0.0, 0.0, 0.0]
---
header: 
  seq: 27
  stamp: 
    secs: 1673001540
    nsecs: 608282089
  frame_id: ''
data: [25.680441983401273, -12.54843307364698, -0.08804740205057993, 4.595888545689101, 3.89367798531944, -0.33312402265774005, 0.9250014173623108, -0.08395954969347973, 0.0705478384768993, 0.36379413736235755, 1.8385889243004073e-06, 3.2856354376813195e-07, 7.306504050854539e-07, -1.616524537656029, -0.35454158582094497, 0.11086530113426313, 0.5342240038351744, 0.9896127050999712, 0.013641288022891771, -0.017663007610052767, -0.14201629247364925, 7.166516528575444, 1.582243363323155, 0.03002440622252702, 0.9956032943878489, 0.06653489675373948, -0.03963626976456004, 0.05268921936395465, 0.0, 0.0, 0.0, 0.0, 0.0, 0.0]
---
header: 
  seq: 28
  stamp: 
    secs: 1673001540
    nsecs: 698282003
  frame_id: ''
data: [25.485465355733638, -12.588788149054931, -0.04422948741606522, 3.1995495424037372, 3.1035846257098503, -0.14280775571332618, 0.9103007231518349, -0.05642202349732197, 0.028997515521576877, 0.4090578110576673, 1.4076834297039759e-06, 3.1265892967148094e-06, 6.64726297961992e-07, -1.4705479471040321, -0.4631394721299512, 0.1370226627547765, 0.5338531634677789, 0.9898480897518722, 0.00868959206169624, -0.01306360587851247, -0.1412607249231779, 7.137195532683494, 1.585217910943792, 0.05661413351166679, 0.9977851092061245, 0.05680735100354144, -0.0019967106937704717, 0.03455161161057488, 0.0, 0.0, 0.0, 0.0, 0.0, 0.0]
---
header: 
  seq: 29
  stamp: 
    secs: 1673001540
    nsecs: 738281965
  frame_id: ''
data: [25.376928366422884, -12.644676421456138, -0.02218764221830523, 2.6077009836597322, 2.6898106141068086, -0.07094912813553896, 0.902286098471183, -0.04364944175721467, 0.01256496890257656, 0.4287384334258027, 1.1432731566501047e-06, 4.429754454917779e-06, 6.156635937798885e-07, -1.4055502002836278, -0.5105604166047445, 0.14941739287391756, 0.5338991139153826, 0.9899240854239795, 0.006821637413856305, -0.011316232058283394, -0.14098125142193504, 7.131101137172301, 1.58269674823618, 0.06618850338223102, 0.9982467784068001, 0.050842679062230826, 0.013088045101634868, 0.027333028768097994, 0.0, 0.0, 0.0, 0.0, 0.0, 0.0]
---
header: 
  seq: 30
  stamp: 
    secs: 1673001540
    nsecs: 738281965
  frame_id: ''
data: [25.84372203940429, -12.244685397491406, -0.07356581460972299, 4.282466944584989, 4.14488442417032, -0.26275665666963194, 0.9137750550097699, -0.08829647427427696, 0.053777999876080125, 0.39284450893699985, 2.164810939967215e-06, -2.7310396670554305e-07, 9.607883220429803e-07, -1.605140075466191, -0.33710309334847727, 0.11237660181223558, 0.5516864302994322, 0.9902838483635996, 0.00927377371951897, -0.013798251047880362, -0.13806340955951438, 7.072293676356856, 1.1410936451887521, 0.059171608316744215, 0.9953838514427135, 0.07505513387253736, -0.0321111508662348, 0.050463741007693665, 0.0, 0.0, 0.0, 0.0, 0.0, 0.0]
---
header: 
  seq: 31
  stamp: 
    secs: 1673001540
    nsecs: 778281927
  frame_id: ''
data: [25.786006872469244, -12.260250999712811, -0.05267250912547942, 3.706863371096372, 3.7438409737031777, -0.18711132439608102, 0.9067676629113428, -0.07448492890653248, 0.03889162319388621, 0.4131728966297703, 1.8495626848974018e-06, 1.1468729072494259e-06, 9.208104384904207e-07, -1.5397737978983794, -0.3912006942392722, 0.1220238751330463, 0.5519965159391252, 0.9903733328247132, 0.006955433439902578, -0.011648524669883819, -0.1377555641284526, 7.065654414747181, 1.131987749484616, 0.0712836693807917, 0.9965389709758591, 0.06870026046612976, -0.0178461732249919, 0.04326508568679169, 0.0, 0.0, 0.0, 0.0, 0.0, 0.0]
---
header: 
  seq: 32
  stamp: 
    secs: 1673001540
    nsecs: 828282118
  frame_id: ''
data: [25.716227991428976, -12.342608456062798, -0.03188770118792915, 3.039735672629209, 3.096949882059015, -0.10927729556023412, 0.8966837989750085, -0.05389968433705385, 0.022605668247436782, 0.4387960488053642, 1.1844730196425184e-06, 3.0736794481433797e-06, 8.268100886059237e-07, -1.4431574342032194, -0.4553964857281697, 0.13810941444765193, 0.5517393197196059, 0.9904869246168879, 0.004230957622961843, -0.009317286945552925, -0.13722586973507064, 7.059688502734164, 1.1344994412477867, 0.08759413528427205, 0.997788333734026, 0.05694350135428669, -0.0012818263833697353, 0.03426712183585604, 0.0, 0.0, 0.0, 0.0, 0.0, 0.0]
---
header: 
  seq: 33
  stamp: 
    secs: 1673001540
    nsecs: 858282089
  frame_id: ''
data: [25.667653944853786, -12.392126358463072, -0.020129932833216953, 2.64497746752345, 2.7245943006562223, -0.07221853411658827, 0.8898522116699119, -0.04257227526460085, 0.013394865451150362, 0.4540608112846859, 8.177427209870365e-07, 4.261527495938065e-06, 7.573469526853944e-07, -1.3903924674029922, -0.4983076647763335, 0.1458249336398117, 0.5518499327667644, 0.9905307839035258, 0.0028638235802438505, -0.008097783492952997, -0.13702186160050978, 7.059637385596538, 1.1315701116802592, 0.0949749746553418, 0.9982789663267254, 0.05029151924535092, 0.007891800168658814, 0.029113364143248298, 0.0, 0.0, 0.0, 0.0, 0.0, 0.0]
---
header: 
  seq: 34
  stamp: 
    secs: 1673001540
    nsecs: 858282089
  frame_id: ''
data: [26.128962453095443, -11.95629680408724, -0.05591948627300096, 4.418940224204317, 4.405948087796167, -0.19702490553179727, 0.9035297943070938, -0.09302586970704005, 0.05047065334022189, 0.41525029983859224, 2.2595073001754726e-06, -1.726351864000254e-06, 1.2518952337296429e-06, -1.6032965561196009, -0.2595589927012327, 0.11727779997418378, 0.5757727231671982, 0.9910295569070926, 0.005471624310973477, -0.011318304659945981, -0.13305027111417672, 7.091274189404088, 0.5590179263157866, 0.09810061997518643, 0.9946742654989239, 0.08063533752603116, -0.034787121794456026, 0.05395279467735778, 0.0, 0.0, 0.0, 0.0, 0.0, 0.0]
---
header: 
  seq: 35
  stamp: 
    secs: 1673001540
    nsecs: 988281965
  frame_id: ''
data: [26.05703558926735, -11.737127771283202, -0.04268703074138276, 2.7116746911540255, 3.632796035370081, -0.1379229646751879, 0.8749740682398249, -0.06497919795469659, 0.018224736102381643, 0.47944336759935813, 2.1922138194441593e-06, 3.0590494314310463e-06, 1.0613322794631388e-06, -1.5001213942809846, -0.4892681105104498, 0.12777183986586646, 0.576542532857711, 0.9910935621690398, 0.001254653034914314, -0.007759555626549753, -0.1329351953747556, 7.081004218667034, 0.539668118720134, 0.12265572290837172, 0.9969015930983752, 0.06934516432174087, -0.0018223151529705949, 0.03708289404288175, 0.0, 0.0, 0.0, 0.0, 0.0, 0.0]
---
header: 
  seq: 36
  stamp: 
    secs: 1673001540
    nsecs: 988281965
  frame_id: ''
data: [26.65791862422331, -11.117160020102677, -0.08390882691531532, 4.755613250819429, 5.7453182595335095, -0.26512456548140395, 0.8899748861157499, -0.12380406594755292, 0.056778729955183786, 0.43519355597571546, 4.3201932551376856e-06, -4.4641998709638804e-06, 1.6887477188378555e-06, -1.7567226311966628, -0.17131177994849467, 0.10623062435853285, 0.6063017577817561, 0.9915342057767342, 0.006318082463867748, -0.013076264558001224, -0.12903105019292782, 7.220027922312382, -0.13958458654722694, 0.11430029868633004, 0.991080938649122, 0.10657529682484644, -0.04630889370935107, 0.06523622855812085, 0.0, 0.0, 0.0, 0.0, 0.0, 0.0]
---
header: 
  seq: 37
  stamp: 
    secs: 1673001541
    nsecs:  28281927
  frame_id: ''
data: [26.36184184809733, -11.473116335252275, -0.047545112769159924, 3.521212655803905, 4.302060610471634, -0.14966471513484805, 0.8767073402552585, -0.08362355981734593, 0.03149911057000109, 0.4726511883189588, 2.4876849767559494e-06, 9.654284809802993e-08, 1.4472633077999257e-06, -1.5532721651751833, -0.34589918526165353, 0.12149785181044662, 0.6068380090415383, 0.9917591072373276, 0.001949434265040795, -0.009888896376869257, -0.12771954684508058, 7.220334507030589, -0.15677012962040926, 0.14681550037589874, 0.9954761021124278, 0.08103379818284534, -0.01847314858090499, 0.04603907532321887, 0.0, 0.0, 0.0, 0.0, 0.0, 0.0]
---
header: 
  seq: 38
  stamp: 
    secs: 1673001541
    nsecs:  68281889
  frame_id: ''
data: [26.216963779938187, -11.65646165171501, -0.03042322488806059, 2.762274979860903, 3.4061155311888083, -0.09864348283841198, 0.8641321691393982, -0.058827449059924215, 0.017227508658706828, 0.49951790602635554, 1.311128538753054e-06, 3.019489866564013e-06, 1.2538484456533161e-06, -1.429729663264669, -0.4621094852427281, 0.1294023198077899, 0.6072073262659425, 0.991865007645634, -0.0006067504764306641, -0.007982435363921521, -0.12704219451680862, 7.223020297176395, -0.1667199145929973, 0.16503637682829692, 0.9972934470433661, 0.06479809128567611, -0.002230213631606005, 0.03467007351090196, 0.0, 0.0, 0.0, 0.0, 0.0, 0.0]
---
header: 
  seq: 39
  stamp: 
    secs: 1673001541
    nsecs: 108282089
  frame_id: ''
data: [26.148607814514726, -11.726749672143347, -0.022496457144470742, 2.2554897699485363, 2.868812273226472, -0.07768056433099584, 0.8526480678068015, -0.04418535340574789, 0.008337897730565263, 0.5205472182916473, 6.413297071589847e-07, 4.921760512802841e-06, 1.1138741056488074e-06, -1.3588461809582546, -0.5433745632833817, 0.1324753302906954, 0.6075877434316154, 0.9919077536958911, -0.0021251927910111135, -0.006786574157221977, -0.12676132740225285, 7.2259636537390834, -0.1753338795656919, 0.17476728646925915, 0.9980538309597335, 0.055149634356831546, 0.007577175221497438, 0.028100796297798294, 0.0, 0.0, 0.0, 0.0, 0.0, 0.0]
---
header: 
  seq: 40
  stamp: 
    secs: 1673001541
    nsecs: 108282089
  frame_id: ''
data: [26.630309186403398, -11.168696645211226, -0.04353038490773531, 4.074301475142489, 4.92800277675844, -0.12633515723808797, 0.8695480771527409, -0.10122430698113082, 0.0377743813518475, 0.481884713712363, 3.157886008337614e-06, -2.9560838791370474e-06, 1.976529275842965e-06, -1.6048059142890936, -0.17690370692476393, 0.1246538375616654, 0.6428056503274321, 0.9926231079879738, 0.002947872497975583, -0.01218308518466397, -0.12059124334467348, 7.482654282283903, -0.9541558832693724, 0.1729865326582799, 0.9937926143663679, 0.09418111539869234, -0.028137943228266786, 0.0521000315163097, 0.0, 0.0, 0.0, 0.0, 0.0, 0.0]
---
header: 
  seq: 41
  stamp: 
    secs: 1673001541
    nsecs: 148282051
  frame_id: ''
data: [26.50400610768802, -11.225798118734737, -0.034245991296669664, 3.276545733830665, 4.289727640144631, -0.10324322745784335, 0.8578494112134397, -0.08309728237215538, 0.024944672253152892, 0.5065244245535452, 2.525005504898089e-06, -1.4026676372625365e-07, 1.850955051072929e-06, -1.5222897613512105, -0.30974743484707457, 0.12567774787776168, 0.6439260087669645, 0.9926740575589725, 0.0012914526932301857, -0.011084790810541097, -0.12030658756707203, 7.483799789153478, -0.9805794009931266, 0.1862560509897079, 0.9954594443976028, 0.08344438753440482, -0.012988589221434895, 0.04391839362568641, 0.0, 0.0, 0.0, 0.0, 0.0, 0.0]
---
header: 
  seq: 42
  stamp: 
    secs: 1673001541
    nsecs: 198282003
  frame_id: ''
data: [27.23658263683519, -10.263592236171814, -0.06913498503454296, 5.233977411426257, 6.90913141151103, -0.18941161181390959, 0.8653214370507095, -0.1496569156969475, 0.05562203734987252, 0.4751082057022601, 6.297560049726684e-06, -9.48130165562257e-06, 2.6076297118493074e-06, -1.8697582624398035, 0.13719412511101903, 0.12473404453662361, 0.6839513723216976, 0.9933977950407586, 0.005257914451216879, -0.013664545634486833, -0.11378249134372936, 7.858289614461523, -1.8305380534226943, 0.16382308319501512, 0.9869734909752799, 0.13053027618254295, -0.053893685753732545, 0.07707558464037838, 0.0, 0.0, 0.0, 0.0, 0.0, 0.0]
---
header: 
  seq: 43
  stamp: 
    secs: 1673001541
    nsecs: 278281927
  frame_id: ''
data: [28.275869423135745, -8.732107399346617, -0.1305719998685353, 7.14819182351319, 10.09929117268456, -0.3823481108723294, 0.8653475324919084, -0.2203415436247126, 0.08220284279996319, 0.44256744660994773, 1.152067656853056e-05, -1.9099404560832295e-05, 3.254930573224017e-06, -2.340424923147765, 0.5924259786696304, 0.1260440239490384, 0.7208296574257993, 0.9939664742410664, 0.006565448942765307, -0.012867153996966368, -0.10872892583384478, 8.261973457403704, -2.5786012825808955, 0.1338301504575762, 0.9708632986176179, 0.1809503760736563, -0.09650345878906422, 0.12396975130195265, 0.0, 0.0, 0.0, 0.0, 0.0, 0.0]
---
header: 
  seq: 44
  stamp: 
    secs: 1673001541
    nsecs: 358282089
  frame_id: ''
data: [29.300656797566198, -6.924195228536519, -0.21961074845534823, 8.44083049119408, 13.158711168163093, -0.689601138596142, 0.863589255404632, -0.2789332718331305, 0.0947918955260605, 0.40917517563595485, 1.711073952238279e-05, -2.6240666322496348e-05, 3.770522223909721e-06, -2.8335825919227258, 0.9098229275631275, 0.12348288405340346, 0.7479075705509403, 0.9943446215277769, 0.007433774078942446, -0.012084063140561305, -0.10524964636396808, 8.596492773901515, -3.1000996769371447, 0.10886084310036154, 0.9503296075877612, 0.22064144294607935, -0.1269426638425145, 0.1790992760826524, 0.0, 0.0, 0.0, 0.0, 0.0, 0.0]
---
header: 
  seq: 45
  stamp: 
    secs: 1673001541
    nsecs: 398282051
  frame_id: ''
data: [29.839451821229346, -5.642115446356783, -0.2981832795607877, 9.017255494364134, 15.356411794904847, -0.9626613572655807, 0.867881824301618, -0.3177890595308959, 0.09097214742678252, 0.370830582721981, 2.1459605602188737e-05, -3.0106286149951952e-05, 3.981330554332417e-06, -3.233714271552572, 1.049656676406884, 0.11835262672411417, 0.7665707669653586, 0.9946103087845165, 0.008572227888124615, -0.011967234319847135, -0.10263350267498836, 8.847314556721237, -3.441948180158666, 0.08835465705225856, 0.9306772671856045, 0.24248915879955105, -0.14420254381446682, 0.23290439791051182, 0.0, 0.0, 0.0, 0.0, 0.0, 0.0]
---
header: 
  seq: 46
  stamp: 
    secs: 1673001541
    nsecs: 408282042
  frame_id: ''
data: [28.02333028889643, -8.38301490667906, -0.146969727351934, 5.128166958132991, 9.3057750126612, -0.44978879025144863, 0.8415368138103669, -0.1884349427799098, 0.04645176140070902, 0.5041332137483105, 1.1598512074448603e-05, -1.2709984417542852e-05, 2.1883117264934804e-06, -2.24806354946608, 0.28453555388806506, 0.10045693583108582, 0.8097450175732246, 0.9953763810279932, 0.00516159771746228, -0.01142566766352371, -0.09522957586307433, 9.241056905006522, -4.367869676247819, 0.14959848509204143, 0.9780688907328705, 0.1631164628326328, -0.06280042409703057, 0.11327122876871974, 0.0, 0.0, 0.0, 0.0, 0.0, 0.0]
---
header: 
  seq: 47
  stamp: 
    secs: 1673001541
    nsecs: 448282003
  frame_id: ''
data: [27.35224650764993, -9.25236105418825, -0.09620364826537682, 3.209067018207283, 6.690823922645633, -0.27112381539635, 0.8195637779693646, -0.1304576147937498, 0.022430270103595253, 0.5574880335630419, 6.874125044094837e-06, -4.3058711738455134e-06, 1.6797074232451852e-06, -1.811871334140891, -0.12253125391104047, 0.0930443808625423, 0.8255212702043306, 0.995659597666188, 0.0030056661951886107, -0.01092107239381623, -0.09237782051822262, 9.37808377825741, -4.7070849971605595, 0.18278463882420215, 0.9891885367596989, 0.12206734136588789, -0.026933469341104146, 0.0766824043984119, 0.0, 0.0, 0.0, 0.0, 0.0, 0.0]
---
header: 
  seq: 48
  stamp: 
    secs: 1673001541
    nsecs: 488281965
  frame_id: ''
data: [26.981595115853494, -9.74363145663299, -0.06507457737348327, 1.9873310631808434, 4.980410317420469, -0.1669826608673261, 0.8015997908820035, -0.0919809472656747, 0.007571383175975117, 0.5906944681938708, 3.571278018442347e-06, 1.4366235979103053e-06, 1.2898594779922032e-06, -1.5260164058432926, -0.41275297646623516, 0.0909114536049229, 0.8328744219916694, 0.9958432771718992, 0.0014598612780660622, -0.010537954631374573, -0.0904598675035949, 9.451836779039184, -4.862598152606111, 0.2055993827439585, 0.9939568012298473, 0.09316536705750364, -0.004970144669720156, 0.05783934069413735, 0.0, 0.0, 0.0, 0.0, 0.0, 0.0]
---
header: 
  seq: 49
  stamp: 
    secs: 1673001541
    nsecs: 488281965
  frame_id: ''
data: [27.28829832586367, -9.230275369435795, -0.09112581629455761, 3.1888389467529286, 6.858605897342597, -0.2597269913764176, 0.8130989029305431, -0.13374435106609667, 0.017879661739572863, 0.5662710837638936, 7.482501295127872e-06, -5.235499744753156e-06, 1.4958349152259489e-06, -1.839872651858895, -0.048974770209844476, 0.08395283345104769, 0.8668616872547451, 0.9961135282716241, 0.0031438115932104424, -0.010676691062201826, -0.08737255582209506, 9.834925790731752, -5.535430091203329, 0.18350321436992822, 0.9886528218459154, 0.1255476815712097, -0.027955402060350357, 0.07760072811415451, 0.0, 0.0, 0.0, 0.0, 0.0, 0.0]
---
header: 
  seq: 50
  stamp: 
    secs: 1673001541
    nsecs: 568281889
  frame_id: ''
data: [27.85595743980674, -8.032204673676079, -0.14984430597301215, 4.191681214652689, 9.157022084751096, -0.42362901592916535, 0.8101740221244075, -0.17671305129853376, 0.02721052001396016, 0.5582563380527729, 1.2435214306733913e-05, -1.1972482993490829e-05, 1.7622027998282402e-06, -2.2377515485447343, 0.3169926555649763, 0.07514081710084025, 0.891217648646877, 0.9962694938345726, 0.0048964431527986204, -0.010754564229463848, -0.08548368176026559, 10.124205941233607, -6.005178339856771, 0.15766972328039006, 0.9801955101664914, 0.15874665164152885, -0.0499678977460851, 0.10732880152545958, 0.0, 0.0, 0.0, 0.0, 0.0, 0.0]
---
header: 
  seq: 51
  stamp: 
    secs: 1673001541
    nsecs: 618282080
  frame_id: ''
data: [27.30575278700869, -8.834647144927706, -0.09052230676351025, 2.351667370049637, 6.348943833176192, -0.2310663116917533, 0.7850633811038208, -0.11647095761111242, 0.010648375741740303, 0.6082734712093321, 6.359583296928724e-06, -2.5329168928318183e-06, 9.70045756755769e-07, -1.7280705694647285, -0.1882595740650172, 0.07475126247173564, 0.9094418088605215, 0.9964352553963913, 0.0023469628296483138, -0.009878013890872726, -0.08374782630120273, 10.294532928026621, -6.388225229872408, 0.188694312529038, 0.9905376803269645, 0.11330104117361033, -0.01827504328517347, 0.07525955563499724, 0.0, 0.0, 0.0, 0.0, 0.0, 0.0]
---
header: 
  seq: 52
  stamp: 
    secs: 1673001541
    nsecs: 648282051
  frame_id: ''
data: [27.660027607462734, -8.02447206096388, -0.1284944092514466, 3.3312702170811543, 8.508541175394265, -0.3493390246970816, 0.7941128735230638, -0.15689577816611322, 0.01579679165529041, 0.5869573411006898, 1.1428045058803808e-05, -9.231324597665832e-06, 1.3591523533772866e-06, -2.125009157452682, 0.18252705870816488, 0.06346443120860595, 0.9314923967170784, 0.9965359199744036, 0.004009331843521506, -0.009934314704616554, -0.08247056960084112, 10.552230980311897, -6.814008181675179, 0.16406346334613725, 0.98307758756601, 0.1451428331437402, -0.03858711003815924, 0.10489542292829249, 0.0, 0.0, 0.0, 0.0, 0.0, 0.0]
---
header: 
  seq: 53
  stamp: 
    secs: 1673001541
    nsecs: 738281965
  frame_id: ''
data: [27.030250884088474, -8.643320897073721, -0.08198589327393797, 0.9940147535807532, 5.488332638003643, -0.20493705567112633, 0.7584907462332099, -0.09419800423491624, -0.0026354304983333327, 0.6448345356623169, 4.845266254330905e-06, 2.1568178711030597e-06, 3.197478047573171e-07, -1.5803587535436314, -0.46110050477368875, 0.0656385124119076, 0.9519194391081631, 0.9965199881764414, 0.0013286094350795914, -0.008896158933235745, -0.0828674020229234, 10.715760225069141, -7.250379003574352, 0.19134112640434475, 0.9924948721085248, 0.096353881728812, -0.003191594753430803, 0.07523079181427636, 0.0, 0.0, 0.0, 0.0, 0.0, 0.0]
---
header: 
  seq: 54
  stamp: 
    secs: 1673001541
    nsecs: 738281965
  frame_id: ''
data: [27.29439039251301, -8.070807854483657, -0.10525154894052131, 1.9648469205597248, 7.456591615898647, -0.2854426868839061, 0.7742801647828395, -0.12946608773645393, 0.0014848842736612617, 0.6194566600406923, 9.516529379300477e-06, -4.4377441212087286e-06, 8.603521063063941e-07, -1.9412985948098314, -0.09352678955952387, 0.05300313827383383, 0.9733051492989013, 0.9965365729779678, 0.0028595054784555647, -0.008967141055513193, -0.08262125832397389, 10.946539044215141, -7.673603061040028, 0.1690927126389613, 0.986543065704652, 0.12527684219362922, -0.021988857078481916, 0.10273744441264576, 0.0, 0.0, 0.0, 0.0, 0.0, 0.0]
---
header: 
  seq: 55
  stamp: 
    secs: 1673001541
    nsecs: 818281889
  frame_id: ''
data: [27.636671461199434, -6.870076618248528, -0.1594716600335644, 2.4771008079510994, 9.508519317265483, -0.43338282378861953, 0.7782019730029845, -0.1594782226588745, 0.0029038795745780243, 0.6074207381998454, 1.4346536338544328e-05, -9.902778181232846e-06, 1.4698290366569102e-06, -2.3146588626959717, 0.19988869670370912, 0.03977131110937922, 0.9857885612427162, 0.9965541884728926, 0.004383438633319969, -0.009038549345927972, -0.08233370833749455, 11.092772157576352, -7.910825995505717, 0.14635108096315205, 0.978789388718129, 0.14942553446174303, -0.03640597068567547, 0.1353438121306166, 0.0, 0.0, 0.0, 0.0, 0.0, 0.0]
---
header: 
  seq: 56
  stamp: 
    secs: 1673001541
    nsecs: 898282051
  frame_id: ''
data: [26.92328159329087, -8.1006084678607, -0.0778577785790846, 0.2717874492638845, 5.33988563665939, -0.1900013602003821, 0.7320206623283516, -0.08388103669670063, -0.00920871910342886, 0.6760361832768437, 4.179256145380258e-06, 3.960546574188739e-06, -7.908087999485137e-07, -1.513804155980519, -0.5650184334769648, 0.053398934916134906, 1.016982782257504, 0.9964960420141766, 0.0012190265922070215, -0.00795696899115841, -0.08325165985565448, 11.37685167484517, -8.5626911795859, 0.17957041929696824, 0.9928717325899957, 0.08802753213765939, -0.0010821823768695335, 0.08034740251431115, 0.0, 0.0, 0.0, 0.0, 0.0, 0.0]
---
header: 
  seq: 57
  stamp: 
    secs: 1673001541
    nsecs: 948282003
  frame_id: ''
data: [26.520713557106262, -8.538572119539905, -0.049712998492252025, -0.7949718497540664, 3.8168874241624846, -0.11810446005922849, 0.7108663005506659, -0.05730706534278679, -0.016123243572858142, 0.7008031421304405, 9.64376242856206e-07, 9.707599452944266e-06, -1.601487567224889e-06, -1.2516315297516252, -0.8900106293469545, 0.057311973793996523, 1.0262153491672081, 0.9964285505896574, 8.739207365136248e-05, -0.007652973202745272, -0.08409261521428762, 11.447479456181009, -8.762387417968155, 0.19228677855155019, 0.9957274151634186, 0.06631290846636077, 0.013816703600054834, 0.06275835852169451, 0.0, 0.0, 0.0, 0.0, 0.0, 0.0]
---
header: 
  seq: 58
  stamp: 
    secs: 1673001541
    nsecs: 998281956
  frame_id: ''
data: [26.246691916167666, -8.872335457119059, -0.03144816671091041, -1.4662580566815204, 2.6402267249962788, -0.0687030439344638, 0.693137908725043, -0.0372572038185227, -0.0202054608432447, 0.7195578361771978, -1.7411304800605076e-06, 1.398238845170836e-05, -2.3935680970286027e-06, -1.0426608355952063, -1.1223146611003223, 0.06379570074948307, 1.0315584832349756, 0.9964190201546081, -0.000557489098384143, -0.007537179435327615, -0.08421411049340659, 11.499689145039053, -8.871451490136652, 0.20042757121158558, 0.9973522499104622, 0.04936902420802988, 0.023768445647644323, 0.04781474708477584, 0.0, 0.0, 0.0, 0.0, 0.0, 0.0]
---
header: 
  seq: 59
  stamp: 
    secs: 1673001542
    nsecs:  68281889
  frame_id: ''
data: [26.015377243406444, -8.972357329593015, -0.020651517826487494, -1.9369965949816528, 1.9505152624089899, -0.045241196347225114, 0.6776268113396432, -0.026145500779901847, -0.02240143822535935, 0.7345995459487239, -3.2275786360726443e-06, 1.6769654990783963e-05, -3.0007583561338645e-06, -0.923283655507593, -1.2704020230843969, 0.06636878276643886, 1.0331168617557953, 0.99641695019787, -0.0009377481923722289, -0.0074960885705335056, -0.08423889032297462, 11.516195463092668, -8.90248319202557, 0.2056193983023973, 0.9980820327185026, 0.03966766543559368, 0.029587919948351936, 0.037192570179026246, 0.0, 0.0, 0.0, 0.0, 0.0, 0.0]
---
header: 
  seq: 60
  stamp: 
    secs: 1673001542
    nsecs:  68281889
  frame_id: ''
data: [26.423862312869947, -8.296139344015781, -0.03254614618065506, -0.3635971130134224, 4.398886401072287, -0.06756696750189335, 0.7152690103343697, -0.0593742417297802, -0.011341689013653566, 0.6962300685582479, 3.2176658041568177e-07, 5.267351157285435e-06, -4.514612432004211e-07, -1.254077287975718, -0.6666146028403475, 0.05379268502175476, 1.056587436806132, 0.9961474647970199, 0.0003465154926071345, -0.007379830819013254, -0.08738218584223206, 11.694417267546473, -9.413081230906648, 0.18371956042702872, 0.993967722325944, 0.06911865503999057, 0.0036543348156027502, 0.08507305294094913, 0.0, 0.0, 0.0, 0.0, 0.0, 0.0]
---
header: 
  seq: 61
  stamp: 
    secs: 1673001542
    nsecs: 198282003
  frame_id: ''
data: [26.345572487487953, -8.265508581655045, -0.015271157163882925, -0.6018607616282042, 3.2684002511890458, -0.028450459537456754, 0.6919454271303588, -0.039949690013913484, -0.011701841267773651, 0.720748649011652, -3.2504192018844865e-06, 9.790870204306023e-06, -1.8132536659144242e-06, -0.9996708858154493, -0.8731421430042574, 0.06292105424342617, 1.0597690708866028, 0.9962058312956411, -0.0002441804938992472, -0.007431794936589991, -0.08671015218800866, 11.743297721595246, -9.465892628679084, 0.1940086751911024, 0.9967355437538388, 0.0514927728408223, 0.010003734513679235, 0.061373247092546566, 0.0, 0.0, 0.0, 0.0, 0.0, 0.0]
---
header: 
  seq: 62
  stamp: 
    secs: 1673001542
    nsecs: 248281956
  frame_id: ''
data: [26.20226159601221, -8.357713762240058, -0.009234752037568525, -0.9709042182211531, 2.706662591955623, -0.02158772521554183, 0.6801971136215571, -0.031398094863429156, -0.014386012280147136, 0.7322151930344831, -4.2881967264624945e-06, 1.2461612084790335e-05, -2.5147699267027646e-06, -0.9105164819261803, -1.003674844206313, 0.06548247489846035, 1.0610991864985704, 0.9961912324093776, -0.0005063275116348873, -0.007458803575048886, -0.08687426749253985, 11.754816298475912, -9.493707934235287, 0.1983750183708148, 0.9976830786857431, 0.04446203852714055, 0.014832948606760328, 0.04931110696159291, 0.0, 0.0, 0.0, 0.0, 0.0, 0.0]
---
header: 
  seq: 63
  stamp: 
    secs: 1673001542
    nsecs: 278281927
  frame_id: ''
data: [26.19275683634437, -8.423952754221528, -0.00360910931229099, -0.9705923670881756, 2.3643060316787556, -0.008397072052385685, 0.6748605591669169, -0.0253574268865298, -0.014899911619449677, 0.7373589486921164, -5.417954851088923e-06, 1.3806533811543845e-05, -2.948626506353921e-06, -0.83507392286146, -1.0566653209897827, 0.06857298220159296, 1.0615911882923523, 0.9961955344812644, -0.0005994320792768633, -0.007530667687454191, -0.08681812486428991, 11.761939375631803, -9.50216484183963, 0.20110616127105496, 0.9982028883254508, 0.03958081393673092, 0.01608954247644433, 0.042017609757483615, 0.0, 0.0, 0.0, 0.0, 0.0, 0.0]
---
header: 
  seq: 64
  stamp: 
    secs: 1673001542
    nsecs: 448282003
  frame_id: ''
data: [26.139775687488513, -8.226655598609092, 0.003292879883132706, -0.9135978526496604, 1.9855323304192198, -0.0025502528540786665, 0.6684668861126075, -0.014899459134804132, -0.015659874912031312, 0.7434277346226359, -7.632497476597527e-06, 1.5798682762198284e-05, -3.4906412372087463e-06, -0.7106827806636837, -1.108774971410632, 0.07390266316242201, 1.0617147160668854, 0.996191633999436, -0.0006466957744348613, -0.007697445132353677, -0.08684791000676738, 11.762866211028559, -9.504065835589298, 0.20485420387717665, 0.9987900271930412, 0.03233074315776214, 0.016325474867102705, 0.03326685282611617, 0.0, 0.0, 0.0, 0.0, 0.0, 0.0]
---
header: 
  seq: 65
  stamp: 
    secs: 1673001542
    nsecs: 568281889
  frame_id: ''
data: [25.971578589383228, -7.706321820919393, -0.00607993382342763, -1.2069635126534735, 2.696530628488751, -0.04350161930933367, 0.6749922420439939, -0.02591162167097289, -0.012258187714696276, 0.7372677925128388, -5.902517279066877e-06, 1.249267849361446e-05, -2.693457140477303e-06, -0.8213244120691503, -1.01085730935282, 0.06978262216680185, 1.0617916544094994, 0.996200121078544, -0.0005145730919697076, -0.007562987249586973, -0.08676321341150221, 11.765251914713192, -9.505202204052907, 0.2004493487419297, 0.9981063657746035, 0.039605418212089516, 0.013947018107462577, 0.04495079681573113, 0.0, 0.0, 0.0, 0.0, 0.0, 0.0]
---
header: 
  seq: 66
  stamp: 
    secs: 1673001542
    nsecs: 608282089
  frame_id: ''
data: [26.384160922823998, -6.779959666219182, -0.021304893945791933, 0.253738545523507, 5.120771489311145, -0.09884495732021614, 0.7205493788294942, -0.04877112484406661, 0.010677427904683071, 0.6916039058472812, -6.942449618994897e-06, -3.392971311213139e-06, 1.0177750314925725e-06, -0.9940269129017101, -0.4734427507109823, 0.0698917251880394, 1.080476236749044, 0.9958748966579093, 0.00029379305358671177, -0.00723530910985235, -0.09044752176994793, 11.896232443854707, -9.917967885638248, 0.1816347774158352, 0.9929825188263441, 0.05597112274490901, -0.007354681881034461, 0.10391756049095954, 0.0, 0.0, 0.0, 0.0, 0.0, 0.0]
---
header: 
  seq: 67
  stamp: 
    secs: 1673001542
    nsecs: 818281889
  frame_id: ''
data: [26.203096336071294, -6.563217082997397, -0.012369331683035627, -0.48583838509406857, 3.640464075896316, -0.05204990926102599, 0.6970881125167364, -0.02363103326931835, -0.006814876466273323, 0.71656353180526, -8.613492581108486e-06, 8.977191291367057e-06, -1.8239175003325955e-06, -0.7955750287009725, -0.8019336938337884, 0.07215648516950479, 1.0843144763036188, 0.9958175513803434, -0.0003319728782474647, -0.007364939731622917, -0.09106619471359827, 11.928132625569502, -9.999862307125317, 0.1933079858884122, 0.9967057027966232, 0.04152094445827774, 0.0035395333859317263, 0.0695789112259748, 0.0, 0.0, 0.0, 0.0, 0.0, 0.0]
---
header: 
  seq: 68
  stamp: 
    secs: 1673001542
    nsecs: 858282089
  frame_id: ''
data: [26.197800734192136, -6.5388410294304515, -0.007992244009633965, -0.508846042086871, 3.419298216370082, -0.03953449995587624, 0.6956280759405836, -0.019097510330658027, -0.008812742635391894, 0.7180941446841177, -9.263948880004639e-06, 1.0734901868264579e-05, -2.1528815673050177e-06, -0.7579058188104862, -0.8376722919499864, 0.07289881648453694, 1.0846893955914652, 0.9958193125578205, -0.00040709763113073213, -0.0073956998234371955, -0.09104413562943187, 11.933160227240771, -10.006747523482188, 0.19506696630696918, 0.997021209264462, 0.03915571778543655, 0.004554364940407002, 0.06629325607878078, 0.0, 0.0, 0.0, 0.0, 0.0, 0.0]
---
header: 
  seq: 69
  stamp: 
    secs: 1673001542
    nsecs: 988281965
  frame_id: ''
data: [26.149437368678267, -6.190324687259306, -0.006840306699094745, -0.6032819222758884, 3.3027153595506813, -0.035752687474166864, 0.6962033906204013, -0.01434599256271499, -0.010770287947667451, 0.7176203956713966, -1.0026472713843926e-05, 1.2601999661500981e-05, -2.3768343651985537e-06, -0.723390900153711, -0.8644743350633437, 0.07359325044684971, 1.0848226551099938, 0.9958206081019682, -0.0004576114567676821, -0.007433002831962419, -0.09102668586783388, 11.935180649578548, -10.009091587923145, 0.19655748730688982, 0.9971923753894686, 0.037048965206616595, 0.00538204841629269, 0.06485194058062481, 0.0, 0.0, 0.0, 0.0, 0.0, 0.0]
---
header: 
  seq: 70
  stamp: 
    secs: 1673001543
    nsecs:  28281927
  frame_id: ''
data: [26.137206075127207, -6.056902465883278, -0.0066396448096097006, -0.6182387533789722, 3.3363515812515576, -0.03699976808787361, 0.6970220583392521, -0.01401119633838102, -0.010518169596353133, 0.7168356190048188, -1.0208630109309132e-05, 1.2565678902319239e-05, -2.3415731307583527e-06, -0.7206236392992161, -0.8618233864180985, 0.07332757115414654, 1.0848188487106003, 0.9958210965800772, -0.0004571092080901875, -0.007435264656005367, -0.09102115960983805, 11.935259663381562, -10.00894350412101, 0.19660447095237568, 0.9971678901682994, 0.03690970334023919, 0.0052336493792447545, 0.06531830930767515, 0.0, 0.0, 0.0, 0.0, 0.0, 0.0]
---
header: 
  seq: 71
  stamp: 
    secs: 1673001543
    nsecs: 198282003
  frame_id: ''
data: [26.174225776959375, -4.207223148798251, -0.07128877293594302, -0.34365979300701105, 6.829787558642891, -0.23506491421837905, 0.7150450319542847, -0.06497172240566643, 0.02916689473476523, 0.6954412770440567, -7.76708262126619e-06, -1.9919041029299025e-05, 3.3009489829164397e-07, -1.0179264830788748, -0.4620540070274774, 0.0608388594233662, 1.1006815899293434, 0.9957295356429902, 0.0008111963543862125, -0.007093636447384613, -0.09204191507472154, 12.104885814149835, -10.319950829119414, 0.17082891620231214, 0.9942140027744675, 0.05364162122698525, -0.013486720841331831, 0.09208257989576445, 0.0, 0.0, 0.0, 0.0, 0.0, 0.0]
---
header: 
  seq: 72
  stamp: 
    secs: 1673001543
    nsecs: 398282051
  frame_id: ''
data: [26.186190818313904, -4.343395537956238, -0.017452018575376232, -0.40356388513984237, 4.213157692452622, -0.04587997182871644, 0.7100512115682982, -0.01383255522714323, -0.004068119148316275, 0.7040024060845782, -1.364246681538966e-05, 9.030589702892969e-06, -2.8681448392185055e-06, -0.7219137444139931, -0.7274050574217921, 0.0677806768551602, 1.107657855513718, 0.9957381700471185, -0.00020668961778395455, -0.007199483384300241, -0.09194357742451051, 12.19158036276717, -10.449896966296631, 0.18882801361998366, 0.9961012731516474, 0.03748352388102197, -0.0002007002105028455, 0.07985736523673678, 0.0, 0.0, 0.0, 0.0, 0.0, 0.0]
---
header: 
  seq: 73
  stamp: 
    secs: 1673001543
    nsecs: 448282003
  frame_id: ''
data: [26.184416431410607, -4.707545200148834, 0.0006829866959174116, -0.44444606899197053, 3.084534068953234, 0.010415643242312464, 0.7071429116229119, 0.0052469202706919675, -0.017300862550848835, 0.7068394814412536, -1.549857772805829e-05, 2.0636796133552526e-05, -4.08504052066425e-06, -0.6120317982656562, -0.8223663793616736, 0.07447941426178523, 1.1098190937900476, 0.9957370857729201, -0.00042363465728146644, -0.007310943170990218, -0.09194578108907697, 12.217756872051261, -10.490606475371047, 0.194247976663935, 0.996628039052289, 0.03194379747325377, 0.004934963117916744, 0.0754174496837549, 0.0, 0.0, 0.0, 0.0, 0.0, 0.0]
---
header: 
  seq: 74
  stamp: 
    secs: 1673001543
    nsecs: 488281965
  frame_id: ''
data: [26.162680958929208, -4.735198223311886, 0.005016610049465759, -0.5021999881750243, 2.7641614189915544, 0.022192545716244003, 0.7060663648958586, 0.010593919774034562, -0.0214659265066047, 0.7077409633656814, -1.586259059890918e-05, 2.420015082450043e-05, -4.444859595168105e-06, -0.5832049201190973, -0.8489638524264278, 0.07650902731158056, 1.1102609048286884, 0.995735765791519, -0.0004701280106435023, -0.007349023959642121, -0.09195681350542578, 12.222884851517756, -10.49908375617109, 0.19564727518515898, 0.9967586197936277, 0.03055732155767306, 0.006484157962096164, 0.07413811207365699, 0.0, 0.0, 0.0, 0.0, 0.0, 0.0]
---
header: 
  seq: 75
  stamp: 
    secs: 1673001543
    nsecs: 528281927
  frame_id: ''
data: [26.18415524357929, -4.730999201528124, 0.00808260784676396, -0.4350958749605529, 2.5180244781891967, 0.03005995704517659, 0.7068530941185087, 0.016043249084423464, -0.023826697457978805, 0.7067769138718042, -1.6931933706488423e-05, 2.7064542288260013e-05, -4.599062289719937e-06, -0.5546544681670157, -0.8597015011296257, 0.07873126037241862, 1.1104500782014042, 0.9957395392816677, -0.0004871103870317067, -0.007392815784799823, -0.09191234361811897, 12.22613598146999, -10.502036423155577, 0.19675169894856148, 0.9967643499443735, 0.029197752031180416, 0.007362003244173619, 0.0745259878467196, 0.0, 0.0, 0.0, 0.0, 0.0, 0.0]
---
header: 
  seq: 76
  stamp: 
    secs: 1673001543
    nsecs: 648282051
  frame_id: ''
data: [26.173043585102477, -4.351532340827741, 0.006134203586129737, -0.4145202304360937, 2.7165909690019143, 0.010426439043327495, 0.7091337831018252, 0.014196151908499077, -0.020018978367508405, 0.7046467110827991, -1.766354752496607e-05, 2.4608957375123286e-05, -4.2383551715957344e-06, -0.5611627759671098, -0.8381661727296502, 0.07937637094388945, 1.1104318671171531, 0.9957390603923477, -0.0004473940824872531, -0.007381875594677944, -0.09191861269734207, 12.225762494683359, -10.501753013811294, 0.19598973088340832, 0.9966302556324095, 0.029455570309290427, 0.006099092770573782, 0.0763105759590929, 0.0, 0.0, 0.0, 0.0, 0.0, 0.0]
---
header: 
  seq: 77
  stamp: 
    secs: 1673001543
    nsecs: 698282003
  frame_id: ''
data: [26.228508203744617, -4.222887182490531, 0.005736104033426518, -0.25086990503947154, 2.703945018975161, 0.007681489974065093, 0.7114905703476087, 0.016898224810481956, -0.018557452529897697, 0.7022472778589389, -1.922539646244897e-05, 2.4847530172863782e-05, -4.028641095922882e-06, -0.5483254263206271, -0.8258725790499616, 0.0809033861616735, 1.1104454982523253, 0.9957375449843213, -0.0004283385594631396, -0.00740330547426242, -0.09193339492659851, 12.225590523774677, -10.502205887762576, 0.19614082736940364, 0.9965168786806246, 0.02876786844610205, 0.005669970598863569, 0.07806645683711488, 0.0, 0.0, 0.0, 0.0, 0.0, 0.0]
---
header: 
  seq: 78
  stamp: 
    secs: 1673001543
    nsecs: 778281927
  frame_id: ''
data: [25.918394742736723, -2.7220281774490127, -0.030169306615455443, -1.2307389281402412, 6.533347019840873, -0.10526411222431492, 0.7115508259206669, -0.06368723851900499, 0.03025264606798795, 0.6990880739844769, -6.7924666801856646e-06, -2.782212974592444e-05, -2.4389662056027757e-06, -0.840277348379159, -0.6674918086808137, 0.07041327676998746, 1.1328281880521294, 0.9959304159524113, 0.00031809557502841443, -0.0067086373349164756, -0.08987491074360358, 12.543219350542726, -10.881833677557925, 0.17320898184971623, 0.9954900037927742, 0.04125744254541157, -0.010863490295240159, 0.08473169632362935, 0.0, 0.0, 0.0, 0.0, 0.0, 0.0]
---
header: 
  seq: 79
  stamp: 
    secs: 1673001543
    nsecs: 898282051
  frame_id: ''
data: [26.098604032713357, -2.8183611269717144, -0.012407422399921937, -0.5452936577779818, 4.747822684376246, -0.05171096440566939, 0.7146189646593238, -0.020485798000730946, 0.005700770256534062, 0.6991906525748122, -1.4850103907428938e-05, -1.5628589758002783e-06, -4.4042000155861306e-06, -0.6785415189136985, -0.712132192642244, 0.07399200616227176, 1.1366637881670933, 0.9960396783654245, -4.151283861686424e-05, -0.006902631327029876, -0.08864147493780349, 12.614969249858873, -10.934191070328263, 0.18294062895993776, 0.995912250882773, 0.03487404235709509, -0.002414135285379031, 0.08328722388282685, 0.0, 0.0, 0.0, 0.0, 0.0, 0.0]
---
header: 
  seq: 80
  stamp: 
    secs: 1673001543
    nsecs: 988281965
  frame_id: ''
data: [26.19315923568993, -2.7277551556388344, -0.00685991309684671, -0.2807415570874977, 4.067043523345945, -0.032070630239610785, 0.7160175752926419, -0.0036215407708113153, -0.0025528144514950805, 0.6980681911195121, -1.8757187251746742e-05, 8.753062753191875e-06, -5.091622877984577e-06, -0.6180390880266056, -0.7208423489328393, 0.0754959722853077, 1.137697997355377, 0.9960704262204813, -0.00013971183811906877, -0.00699262733862308, -0.0882881059512238, 12.634932387079695, -10.948025187315073, 0.186319066803196, 0.9960075201973403, 0.03235628701145065, 0.0004441069632003203, 0.08319791566008516, 0.0, 0.0, 0.0, 0.0, 0.0, 0.0]
---
header: 
  seq: 81
  stamp: 
    secs: 1673001544
    nsecs: 108282089
  frame_id: ''
data: [26.196173002427926, -2.669442079360394, -0.0019775611030674344, -0.28471856175061, 3.1399022099188127, -0.012616328158967465, 0.7138117559596694, 0.014598255893768782, -0.016682863700080625, 0.6999866784713822, -2.0900380621361245e-05, 2.2965716141275656e-05, -6.2239316886353336e-06, -0.5604291379602759, -0.7501118959634703, 0.07558379664954892, 1.1385285851683886, 0.99607343513017, -0.00024629000396674997, -0.007097710342850498, -0.08824553063530112, 12.646024387164218, -10.962601871955066, 0.18987609741364364, 0.9962406312753864, 0.030487831584309396, 0.004787302606674957, 0.08094552770263769, 0.0, 0.0, 0.0, 0.0, 0.0, 0.0]
---
header: 
  seq: 82
  stamp: 
    secs: 1673001544
    nsecs: 158282042
  frame_id: ''
data: [26.34660673196056, -2.6317056914466637, 0.0009414990995243847, 0.09108868212216101, 2.8724624670941377, -0.003205801593175369, 0.7168185479970549, 0.024229508669874843, -0.017370232389752344, 0.6966221179260219, -2.4870362066378517e-05, 2.698799624975417e-05, -6.1332901567786576e-06, -0.5311994375887695, -0.7354108926827582, 0.07757773843702495, 1.1386186712493223, 0.9960852623881388, -0.00024933892296767206, -0.007154888467622423, -0.08810729512514938, 12.649968219755191, -10.962258487232805, 0.1911357830580471, 0.9961299560799122, 0.02890522496674483, 0.005370042231307594, 0.08282971215867022, 0.0, 0.0, 0.0, 0.0, 0.0, 0.0]
---
header: 
  seq: 83
  stamp: 
    secs: 1673001544
    nsecs: 278281927
  frame_id: ''
